[
  {
    "location": "Alberta",
    "lat": 53.933271,
    "lng": -116.576503,
    "country": "Canada",
    "isChapter": false,
    "isUnion": false,
    "chapterInfo": {}
  },
  {
    "location": "GWU Argentina",
    "lat": -38.416097,
    "lng": -63.616672,
    "country": "Argentina",
    "isChapter": true,
    "isUnion": false,
    "chapterInfo": {
      "description": "The national Argentina chapter of Game Workers Unite.",
      "applicationLink": "",
      "twitter": "",
      "email": "gwuargentina@gmail.com",
      "website": ""
    }
  },
  {
    "location": "GWU Atlanta",
    "lat": 33.748995,
    "lng": -84.387982,
    "country": "USA",
    "isChapter": true,
    "isUnion": false,
    "chapterInfo": {
      "description": "The local Atlanta, GA, USA chapter of Game Workers Unite.",
      "applicationLink": "",
      "twitter": "GWU_Atlanta",
      "email": "GWUAtlanta@gmail.com",
      "website": ""
    }
  },
  {
    "location": "GWU Austin",
    "lat": 30.267153,
    "lng": -97.743061,
    "country": "USA",
    "isChapter": true,
    "isUnion": false,
    "chapterInfo": {
      "description": "The local Austin, TX, USA chapter of Game Workers Unite.",
      "applicationLink": "https://docs.google.com/forms/d/e/1FAIpQLSe6NQFsIcWVVBdA2vvMJbs5tnLNCEIsw6Yyin9b4p3zYqNVjQ/viewform",
      "twitter": "GWU_Austin",
      "email": "GWUAustinLocal@gmail.com",
      "website": ""
    }
  },
  {
    "location": "GWU Australia",
    "lat": -25.274398,
    "lng": 133.775136,
    "country": "Australia",
    "isChapter": true,
    "isUnion": false,
    "chapterInfo": {
      "description": "The national Australia chapter of Game Workers Unite.",
      "applicationLink": "https://docs.google.com/forms/d/e/1FAIpQLSdKRJv8DKsOT92V4r2mzWHVaYfwHrG405hea8UV9tZTgW36Ig/viewform",
      "twitter": "GWU_Aus",
      "email": "GWUAustralia@gmail.com",
      "website": ""
    }
  },
  {
    "location": "BECTU Scotland",
    "lat": 55.86515,
    "lng": -4.25763,
    "country": "Scotland",
    "isChapter": false,
    "isUnion": true,
    "chapterInfo": {
      "description": "Games industry union in Scotland, a branch of <a href=\"https://bectu.org.uk/\">BECTU</a>.",
      "applicationLink": "https://bectu.org.uk/join/",
      "twitter": "",
      "email": "info@bectu.org.uk",
      "website": "bectu.org.uk/get-involved/games-workers-branch/"
    }
  },
  {
    "location": "GWU Baltimore",
    "lat": 39.290385,
    "lng": -76.612189,
    "country": "USA",
    "isChapter": true,
    "isUnion": false,
    "chapterInfo": {
      "description": "The local Baltimore, MD, USA chapter of Game Workers Unite.",
      "applicationLink": "https://docs.google.com/forms/d/e/1FAIpQLScAv2ykDUnBzYZ8N5vtw_lAcv7HargbqIkjKvdCIL7Ydqvx6g/viewform",
      "twitter": "GWU_Baltimore",
      "email": "GWUBaltimore@gmail.com",
      "website": ""
    }
  },
  {
    "location": "GWU Bay Area",
    "lat": 37.827178,
    "lng": -122.291308,
    "country": "USA",
    "isChapter": true,
    "isUnion": false,
    "chapterInfo": {
      "description": "The local Bay Area, CA, USA chapter of Game Workers Unite.",
      "applicationLink": "https://docs.google.com/forms/d/e/1FAIpQLSdVe5gWVEqXoh2Y3tdJiDvBz4cvNWgKjBZ_MUYjoFYuukuldw/viewform",
      "twitter": "GWU_BayArea",
      "email": "GWUBayArea@gmail.com",
      "website": ""
    }
  },
  {
    "location": "Belgium",
    "lat": 50.503887,
    "lng": 4.469936,
    "country": "Belgium",
    "isChapter": false,
    "isUnion": false,
    "chapterInfo": {}
  },
  {
    "location": "GWU Boston",
    "lat": 42.360083,
    "lng": -71.05888,
    "country": "USA",
    "isChapter": true,
    "isUnion": false,
    "chapterInfo": {
      "description": "The Boston, MA, USA chapter of Game Workers Unite.",
      "applicationLink": "https://goo.gl/forms/U2Xy1uDtfvw73BgA3",
      "twitter": "GWU_Boston",
      "email": "GWUBoston@gmail.com",
      "website": ""
    }
  },
  {
    "location": "GWU Brasil",
    "lat": -14.235004,
    "lng": -51.92528,
    "country": "Brazil",
    "isChapter": true,
    "isUnion": false,
    "chapterInfo": {
      "description": "The national Brasil chapter of Game Workers Unite.",
      "applicationLink": "https://docs.google.com/forms/d/e/1FAIpQLSc5Q7r3_yr5fJL3IW5fzh5PwYe4L2K55aP3-rkngZBQn_5fXQ/viewform",
      "twitter": "GWU_Brasil",
      "email": "GWUBrasil@gmail.com",
      "website": ""
    }
  },
  {
    "location": "Bucaramanga",
    "lat": 7.119349,
    "lng": -73.122742,
    "country": "Colombia",
    "isChapter": false,
    "isUnion": false,
    "chapterInfo": {}
  },
  {
    "location": "GWU Chicago",
    "lat": 41.878114,
    "lng": -87.629798,
    "country": "USA",
    "isChapter": true,
    "isUnion": false,
    "chapterInfo": {
      "description": "The local Chicago, IL, USA chapter of Game Workers Unite.",
      "applicationLink": "https://docs.google.com/forms/d/e/1FAIpQLScJJF2zi6DRDl1f4FELY0GNLx7_8NFt_W-j9QfSaOO30EDf9w/viewform",
      "twitter": "GWU_Chicago",
      "email": "GWUChicago@gmail.com",
      "website": "GWU-Chicago.org"
    }
  },
  {
    "location": "GWU DC",
    "lat": 38.907192,
    "lng": -77.036871,
    "country": "USA",
    "isChapter": true,
    "isUnion": false,
    "chapterInfo": {
      "description": "The local Washington D.C. chapter of Game Workers Unite.",
      "applicationLink": "https://docs.google.com/forms/d/1JiVog4u6VA-WoS4JdtGtPfs0qFHBYaSWapEIF7DK5y8/edit",
      "twitter": "GWU_DC",
      "email": "GWUDCLocal@gmail.com",
      "website": ""
    }
  },
  {
    "location": "GWU Dallas",
    "lat": 32.776664,
    "lng": -96.796988,
    "country": "USA",
    "isChapter": true,
    "isUnion": false,
    "chapterInfo": {
      "description": "The local Dallas, TX, USA chapter of Game Workers Unite.",
      "applicationLink": "https://goo.gl/forms/RBFvHJZrjtduTfmq2",
      "twitter": "GWU_Dallas",
      "email": "GWUDallas@gmail.com",
      "website": ""
    }
  },
  {
    "location": "GWU Detroit",
    "lat": 42.331427,
    "lng": -83.045754,
    "country": "USA",
    "isChapter": true,
    "isUnion": false,
    "chapterInfo": {
      "description": "The local Detroit, MI, USA chapter of Game Workers Unite.",
      "applicationLink": "https://docs.google.com/forms/d/1HeaQMUpokdK4Em9bdYDc13emz-sLRV4LWy8F8EdSyGU/edit",
      "twitter": "GWU_Detroit",
      "email": "GWUDetroit@gmail.com",
      "website": ""
    }
  },
  {
    "location": "GWU Deutschland",
    "lat": 51.165691,
    "lng": 10.451526,
    "country": "Germany",
    "isChapter": true,
    "isUnion": false,
    "chapterInfo": {
      "description": "The national Deutschland chapter of Game Workers Unite.",
      "applicationLink": "https://goo.gl/forms/53CgNOT2jrSVwoHq1",
      "twitter": "GWU_Deutschland",
      "email": "GWUDeutschland@gmail.com",
      "website": ""
    }
  },
  {
    "location": "Game Makers Finland",
    "lat": 61.92411,
    "lng": 25.748151,
    "country": "Finland",
    "isChapter": false,
    "isUnion": true,
    "chapterInfo": {
      "description": "A games industry union in Finland, a member of Assocation of IT sector employees (<a href=\"https://tietoala.fi/\">Tietoala</a>).",
      "applicationLink": "https://link.webropolsurveys.com/Participation/Public/7c151237-8c21-4db1-86b2-248cbcf714ac?displayId=Fin1505385",
      "twitter": "gamemakersfin",
      "email": "",
      "website": "peliala.fi/en/"
    }
  },
  {
    "location": "India",
    "lat": 20.593684,
    "lng": 78.96288,
    "country": "India",
    "isChapter": false,
    "isUnion": false,
    "chapterInfo": {}
  },
  {
    "location": "Indiana",
    "lat": 40.267194,
    "lng": -86.134902,
    "country": "USA",
    "isChapter": false,
    "isUnion": false,
    "chapterInfo": {}
  },
  {
    "location": "GWU Ireland",
    "lat": 53.142367,
    "lng": -7.692054,
    "country": "Ireland",
    "isChapter": true,
    "isUnion": true,
    "chapterInfo": {
      "description": "The national Game Workers Unite union in Ireland, a branch of <a href=\"https://www.fsunion.org/\">Financial Services Union</a>.",
      "applicationLink": "https://www.fsunion.org/join/GWUIreland",
      "twitter": "gwu_ireland",
      "email": "gwuireland@fsunion.org",
      "website": "gwuireland.org/"
    }
  },
  {
    "location": "Italy",
    "lat": 41.87194,
    "lng": 12.56738,
    "country": "Italy",
    "isChapter": false,
    "isUnion": false,
    "chapterInfo": {}
  },
  {
    "location": "Japan",
    "lat": 36.204824,
    "lng": 138.252924,
    "country": "Japan",
    "isChapter": false,
    "isUnion": false,
    "chapterInfo": {}
  },
  {
    "location": "Korea",
    "lat": 37.663998,
    "lng": 127.978458,
    "country": "Korea",
    "isChapter": false,
    "isUnion": false,
    "chapterInfo": {}
  },
  {
    "location": "Las Vegas",
    "lat": 36.169941,
    "lng": -115.13983,
    "country": "USA",
    "isChapter": false,
    "isUnion": false,
    "chapterInfo": {}
  },
  {
    "location": "Lewiston, Maine",
    "lat": 44.100351,
    "lng": -70.214776,
    "country": "USA",
    "isChapter": false,
    "isUnion": false,
    "chapterInfo": {}
  },
  {
    "location": "GWU Los Angeles",
    "lat": 34.052234,
    "lng": -118.243685,
    "country": "USA",
    "isChapter": true,
    "isUnion": false,
    "chapterInfo": {
      "description": "The local Los Angeles, CA, USA chapter of Game Workers Unite.",
      "applicationLink": "https://docs.google.com/forms/d/e/1FAIpQLScggE2ibjn2t9_1VcNT2r4yitlasP_XMsEJu_pmZ99zDZbx1w/viewform",
      "twitter": "GWU_LosAngeles",
      "email": "GWULosAngeles@gmail.com",
      "website": ""
    }
  },
  {
    "location": "Madison, Wisconsin",
    "lat": 43.073052,
    "lng": -89.40123,
    "country": "USA",
    "isChapter": false,
    "isUnion": false,
    "chapterInfo": {}
  },
  {
    "location": "GWU Malaysia",
    "lat": 4.210484,
    "lng": 101.975766,
    "country": "Malaysia",
    "isChapter": true,
    "isUnion": false,
    "chapterInfo": {
      "description": "The national Malaysia chapter of Game Workers Unite.",
      "applicationLink": "",
      "twitter": "",
      "email": "",
      "website": ""
    }
  },
  {
    "location": "Mexico",
    "lat": 23.634501,
    "lng": -102.552784,
    "country": "Mexico",
    "isChapter": false,
    "isUnion": false,
    "chapterInfo": {}
  },
  {
    "location": "GWU Montréal",
    "lat": 45.501689,
    "lng": -73.567256,
    "country": "Canada",
    "isChapter": true,
    "isUnion": false,
    "chapterInfo": {
      "description": "The local Montréal, Canada chapter of Game Workers Unite.",
      "applicationLink": "https://docs.google.com/forms/d/e/1FAIpQLSc59I5tMp8fJQJMUDsWoYfdCvLN95nLVIkOg5mKJlaa98vsOw/viewform",
      "twitter": "GWU_Montreal",
      "email": "GWUMontreal@gmail.com",
      "website": "GWUMTL.com"
    }
  },
  {
    "location": "Nashville",
    "lat": 36.162664,
    "lng": -86.781602,
    "country": "USA",
    "isChapter": false,
    "isUnion": false,
    "chapterInfo": {}
  },
  {
    "location": "GWU New York City",
    "lat": 40.712775,
    "lng": -74.005973,
    "country": "USA",
    "isChapter": true,
    "isUnion": false,
    "chapterInfo": {
      "description": "The local NYC, NY, USA chapter of Game Workers Unite.",
      "applicationLink": "https://docs.google.com/forms/d/1dAqrFD9b9chl5AYWWScboCQUe08Z8_0nR7JzsgUYZFM/edit",
      "twitter": "GWU_NewYorkCity",
      "email": "GWUNewYorkCity@gmail.com",
      "website": ""
    }
  },
  {
    "location": "New Zealand",
    "lat": -40.900557,
    "lng": 174.885971,
    "country": "New Zealand",
    "isChapter": false,
    "isUnion": false,
    "chapterInfo": {}
  },
  {
    "location": "GWU Orange County",
    "lat": 33.717471,
    "lng": -117.831143,
    "country": "USA",
    "isChapter": true,
    "isUnion": false,
    "chapterInfo": {
      "description": "The local Orange Country, CA, USA chapter of Game Workers Unite.",
      "applicationLink": "",
      "twitter": "GWUOrangeCounty",
      "email": "GWUOrangeCounty@gmail.com",
      "website": ""
    }
  },
  {
    "location": "GWU Orlando",
    "lat": 28.538336,
    "lng": -81.379236,
    "country": "USA",
    "isChapter": true,
    "isUnion": false,
    "chapterInfo": {
      "description": "The local Orlando, FL, USA chapter of Game Workers Unite.",
      "applicationLink": "https://goo.gl/forms/ElyN68EiHMLnkovs1",
      "twitter": "GWU_Orlando",
      "email": "GWUOrlando@gmail.com",
      "website": ""
    }
  },
  {
    "location": "GWU Ottawa",
    "lat": 45.42153,
    "lng": -75.697193,
    "country": "Canada",
    "isChapter": true,
    "isUnion": false,
    "chapterInfo": {
      "description": "The local Ottawa, Canada chapter of Game Workers Unite.",
      "applicationLink": "https://docs.google.com/forms/d/1uQmzlz7zpJrSExXNumjgi_iadVFC7THcWyxwSQdDF8Q/",
      "twitter": "GWU_Ottawa",
      "email": "GWUOttawa@gmail.com",
      "website": ""
    }
  },
  {
    "location": "GWU Poland",
    "lat": 51.919438,
    "lng": 19.145136,
    "country": "Poland",
    "isChapter": true,
    "isUnion": false,
    "chapterInfo": {
      "description": "The national Poland chapter of Game Workers Unite.",
      "applicationLink": "",
      "twitter": "",
      "email": "",
      "website": ""
    }
  },
  {
    "location": "Prague",
    "lat": 49.817492,
    "lng": 15.472962,
    "country": "Czech Republic",
    "isChapter": false,
    "isUnion": false,
    "chapterInfo": {}
  },
  {
    "location": "GWU Russia",
    "lat": 55.755826,
    "lng": 37.6173,
    "country": "Russia",
    "isChapter": true,
    "isUnion": false,
    "chapterInfo": {
      "description": "The national Russia chapter of Game Workers Unite.",
      "applicationLink": "",
      "twitter": "",
      "email": "",
      "website": ""
    }
  },
  {
    "location": "STJV",
    "lat": 46.227638,
    "lng": 2.213749,
    "country": "France",
    "isChapter": false,
    "isUnion": true,
    "chapterInfo": {
      "description": "A video game workers' union in France.",
      "applicationLink": "https://www.stjv.fr/en/membership/",
      "twitter": "STJV_fr",
      "email": "Contact@STJV.fr",
      "website": "STJV.fr/en"
    }
  },
  {
    "location": "GWU Seattle",
    "lat": 47.60621,
    "lng": -122.332071,
    "country": "USA",
    "isChapter": true,
    "isUnion": false,
    "chapterInfo": {
      "description": "The local Seattle, WA, USA chapter of Game Workers Unite.",
      "applicationLink": "https://goo.gl/forms/QJiBTURiU0wFNxD93",
      "twitter": "GWU_Seattle",
      "email": "GWUSeattle@gmail.com",
      "website": "gameworkersseattle.wordpress.com"
    }
  },
  {
    "location": "Solidaires Informatique",
    "lat": 48.8534,
    "lng": 2.3488,
    "country": "France",
    "isChapter": false,
    "isUnion": true,
    "chapterInfo": {
      "description": "Games industry union in Scotland, a branch of <a href=\"https://bectu.org.uk/\">BECTU</a>.",
      "applicationLink": "https://solidairesinformatique.org/wp-content/uploads/2019/12/Bulletin_Adh%C3%A9sion_Solidaires_Informatique.pdf",
      "twitter": "",
      "email": "contact@solidairesinformatique.org",
      "website": "solidairesinformatique.org/"
    }
  },
  {
    "location": "GWU Spain",
    "lat": 40.463667,
    "lng": -3.74922,
    "country": "Spain",
    "isChapter": true,
    "isUnion": false,
    "chapterInfo": {
      "description": "The national España chapter of Game Workers Unite.",
      "applicationLink": "https://docs.google.com/forms/d/e/1FAIpQLSdP1wlXsu39sfvoBAgvaLO3nLSEAhFXERnJHqK7dl3ok6GMrA/viewform",
      "twitter": "GWU_Spain",
      "email": "contact@gwuspain.org",
      "website": "gwuspain.org"
    }
  },
  {
    "location": "GWU Sweden",
    "lat": 61.889081,
    "lng": 15.457691,
    "country": "Sweden",
    "isChapter": true,
    "isUnion": false,
    "chapterInfo": {
      "description": "The national Sweden chapter of Game Workers Unite.",
      "applicationLink": "https://docs.google.com/forms/d/e/1FAIpQLSccI5tefFOo9cr5xAboUr_Hr4Wdk3gM4o__MrNTekXe7Ey3ig/viewform?usp=sf_link",
      "twitter": "GWU_Sweden",
      "email": "info@gwu-sweden.org",
      "website": "gwu-sweden.org"
    }
  },
  {
    "location": "Taipei",
    "lat": 25.032969,
    "lng": 121.565418,
    "country": "Taiwan",
    "isChapter": false,
    "isUnion": false,
    "chapterInfo": {}
  },
  {
    "location": "Thailand",
    "lat": 15.870032,
    "lng": 100.992541,
    "country": "Thailand",
    "isChapter": false,
    "isUnion": false,
    "chapterInfo": {}
  },
  {
    "location": "The Netherlands",
    "lat": 52.132633,
    "lng": 5.291266,
    "country": "The Netherlands",
    "isChapter": false,
    "isUnion": false,
    "chapterInfo": {}
  },
  {
    "location": "GWU Toronto",
    "lat": 43.653226,
    "lng": -79.383184,
    "country": "Canada",
    "isChapter": true,
    "isUnion": false,
    "chapterInfo": {
      "description": "The local Toronto, ON, Canada chapter of Game Workers Unite.",
      "applicationLink": "https://docs.google.com/forms/d/e/1FAIpQLSfLTkYiir3BU2DFgJm8PXvSBmJCxoslso-iKEhgnYTWb9MEmg/viewform",
      "twitter": "GWU_Toronto",
      "email": "GWUToronto@gmail.com",
      "website": ""
    }
  },
  {
    "location": "GWU Triangle",
    "lat": 35.899168,
    "lng": -78.86364,
    "country": "USA",
    "isChapter": true,
    "isUnion": false,
    "chapterInfo": {
      "description": "The local Triangle Region, NC, USA chapter of Game Workers Unite.",
      "applicationLink": "https://goo.gl/forms/1FUQONVZ092tMnx23",
      "twitter": "GWU_Triangle",
      "email": "GWUTriangle@gmail.com",
      "website": "https://goo.gl/forms/1FUQONVZ092tMnx23"
    }
  },
  {
    "location": "GWU UK",
    "lat": 53.414323,
    "lng": -2.294885,
    "country": "United Kingdom",
    "isChapter": true,
    "isUnion": true,
    "chapterInfo": {
      "description": "National Game Workers Unite union of the United Kingdom. A branch of <a href=\"https://iwgb.org.uk/\">IWGB</a>.",
      "applicationLink": "https://iwgb.org.uk/join/gwu",
      "twitter": "GWU_UK",
      "email": "contact@gwu-uk.org",
      "website": "gwu-uk.org"
    }
  },
  {
    "location": "GWU Ukraine",
    "lat": 48.379433,
    "lng": 31.16558,
    "country": "Ukraine",
    "isChapter": true,
    "isUnion": false,
    "chapterInfo": {
      "description": "The national Ukraine chapter of Game Workers Unite.",
      "applicationLink": "",
      "twitter": "",
      "email": "ukraine.gwu@gmail.com",
      "website": ""
    }
  },
  {
    "location": "Utah",
    "lat": 39.32098,
    "lng": -111.093731,
    "country": "USA",
    "isChapter": false,
    "isUnion": false,
    "chapterInfo": {}
  },
  {
    "location": "GWU Vancouver",
    "lat": 49.282729,
    "lng": -123.120738,
    "country": "Canada",
    "isChapter": true,
    "isUnion": false,
    "chapterInfo": {
      "description": "The local Vancouver, Canada chapter of Game Workers Unite.",
      "applicationLink": "https://docs.google.com/forms/d/e/1FAIpQLSdCixTyvEsGcr3FNjK-1ZcNmm7O54Tw0-lOo9s_lC5m00-6bQ/viewform",
      "twitter": "GWU_Vancouver",
      "email": "GWUVancouver@gmail.com",
      "website": ""
    }
  },
  {
    "location": "Vietnam",
    "lat": 14.058324,
    "lng": 108.277199,
    "country": "Vietnam",
    "isChapter": false,
    "isUnion": false,
    "chapterInfo": {}
  }
]
